% program   : RTKPOST ver.2.4.2
% inp file  : C:\Users\gygri\Desktop\DTU - s194119\4. Sem\Fagprojekt\Island overflyvning\GPS-EX1\AIR30325a.obs
% inp file  : C:\Users\gygri\Desktop\DTU - s194119\4. Sem\Fagprojekt\Island overflyvning\GPS-EX1\AEY10325a.obs
% inp file  : C:\Users\gygri\Desktop\DTU - s194119\4. Sem\Fagprojekt\Island overflyvning\GPS-EX1\AEY10325a.nav
% inp file  : C:\Users\gygri\Desktop\DTU - s194119\4. Sem\Fagprojekt\Island overflyvning\GPS-EX1\cod16810.sp3
% inp file  : C:\Users\gygri\Desktop\DTU - s194119\4. Sem\Fagprojekt\Island overflyvning\GPS-EX1\cod16810.clk
% obs start : 2012/03/25 10:46:32.0 GPST (week1681  38792.0s)
% obs end   : 2012/03/25 11:42:26.0 GPST (week1681  42146.0s)
% pos mode  : dgps
% freqs     : L1+L2
% solution  : forward
% elev mask : 15.0 deg
% dynamics  : off
% tidecorr  : off
% ionos opt : broadcast
% tropo opt : saastamoinen
% ephemeris : precise
% antenna1  :                       ( 0.0000  0.0000  0.0000)
% antenna2  :                       ( 0.0000  0.0000  0.0000)
% ref pos   : 65.652331752  -18.073371951    79.1632
%
% (lat/lon/height=WGS84/ellipsoidal,Q=1:fix,2:float,3:sbas,4:dgps,5:single,6:ppp,ns=# of satellites)
%  GPST                  latitude(deg) longitude(deg)  height(m)   Q  ns   sdn(m)   sde(m)   sdu(m)  sdne(m)  sdeu(m)  sdun(m) age(s)  ratio
2012/03/25 10:46:32.000   65.652479112  -18.074900686    80.7193   4   5   1.1222   0.5207   5.0104   0.0773   0.8567   1.7685   0.00    0.0
2012/03/25 10:46:33.000   65.652487596  -18.074897082    80.4675   4   5   1.1217   0.5207   5.0054   0.0757   0.8564   1.7662   0.00    0.0
2012/03/25 10:46:34.000   65.652482902  -18.074898832    81.8188   4   5   1.1212   0.5208   5.0005   0.0740   0.8561   1.7640   0.00    0.0
2012/03/25 10:46:35.000   65.652476461  -18.074898028    78.0642   4   5   1.1206   0.5208   4.9955   0.0723   0.8558   1.7618   0.00    0.0
2012/03/25 10:46:36.000   65.652480541  -18.074902882    80.4626   4   5   1.1201   0.5209   4.9906   0.0706   0.8555   1.7596   0.00    0.0
2012/03/25 10:46:37.000   65.652479820  -18.074900288    78.5415   4   5   1.1195   0.5209   4.9857   0.0688   0.8552   1.7573   0.00    0.0
2012/03/25 10:46:38.000   65.652475070  -18.074901319    79.7069   4   5   1.1190   0.5210   4.9808   0.0670   0.8549   1.7551   0.00    0.0
2012/03/25 10:46:39.000   65.652482833  -18.074898374    83.8603   4   5   1.1185   0.5210   4.9759   0.0651   0.8546   1.7529   0.00    0.0
2012/03/25 10:46:40.000   65.652494921  -18.074897509    86.3642   4   5   1.1179   0.5211   4.9710   0.0632   0.8543   1.7507   0.00    0.0
2012/03/25 10:46:41.000   65.652482434  -18.074906462    83.2415   4   5   1.1174   0.5211   4.9661   0.0612   0.8540   1.7485   0.00    0.0
2012/03/25 10:46:42.000   65.652487173  -18.074899306    82.6088   4   5   1.1169   0.5212   4.9612   0.0592   0.8537   1.7463   0.00    0.0
2012/03/25 10:46:43.000   65.652483378  -18.074909744    78.3491   4   5   1.1163   0.5213   4.9563   0.0571   0.8534   1.7441   0.00    0.0
2012/03/25 10:46:44.000   65.652479571  -18.074902705    81.0631   4   5   1.1158   0.5213   4.9515   0.0549   0.8531   1.7419   0.00    0.0
2012/03/25 10:46:45.000   65.652487605  -18.074908798    82.8998   4   5   1.1153   0.5214   4.9466   0.0526   0.8528   1.7397   0.00    0.0
2012/03/25 10:46:46.000   65.652486829  -18.074896056    84.0351   4   5   1.1147   0.5214   4.9418   0.0502   0.8525   1.7375   0.00    0.0
2012/03/25 10:46:47.000   65.652483055  -18.074887096    85.1617   4   5   1.1142   0.5215   4.9369   0.0477   0.8522   1.7353   0.00    0.0
2012/03/25 10:46:48.000   65.652486230  -18.074909013    78.0125   4   5   1.1137   0.5215   4.9321   0.0450   0.8519   1.7331   0.00    0.0
2012/03/25 10:46:49.000   65.652482508  -18.074892239    83.7480   4   5   1.1132   0.5216   4.9273   0.0422   0.8516   1.7310   0.00    0.0
2012/03/25 10:46:50.000   65.652480845  -18.074890758    82.1376   4   5   1.1126   0.5216   4.9225   0.0392   0.8513   1.7288   0.00    0.0
2012/03/25 10:46:51.000   65.652478721  -18.074881400    83.2082   4   5   1.1121   0.5217   4.9177   0.0359   0.8510   1.7266   0.00    0.0
2012/03/25 10:46:52.000   65.652482064  -18.074891000    83.6520   4   5   1.1116   0.5217   4.9129   0.0323   0.8507   1.7245   0.00    0.0
2012/03/25 10:46:53.000   65.652483740  -18.074906870    81.4387   4   5   1.1111   0.5218   4.9081   0.0282   0.8504   1.7223   0.00    0.0
2012/03/25 10:46:54.000   65.652484884  -18.074893515    82.1927   4   5   1.1106   0.5218   4.9033   0.0235   0.8501   1.7201   0.00    0.0
2012/03/25 10:46:55.000   65.652483751  -18.074894196    83.2821   4   5   1.1101   0.5219   4.8985   0.0175   0.8498   1.7180   0.00    0.0
2012/03/25 10:46:56.000   65.652484736  -18.074898735    83.3271   4   5   1.1095   0.5220   4.8938   0.0078   0.8495   1.7158   0.00    0.0
2012/03/25 10:46:57.000   65.652486043  -18.074899686    81.0847   4   5   1.1090   0.5220   4.8890  -0.0136   0.8493   1.7137   0.00    0.0
2012/03/25 10:46:58.000   65.652491770  -18.074910479    84.9889   4   5   1.1085   0.5221   4.8843  -0.0207   0.8490   1.7115   0.00    0.0
2012/03/25 10:46:59.000   65.652477412  -18.074901210    81.0880   4   5   1.1080   0.5221   4.8796  -0.0259   0.8487   1.7094   0.00    0.0
2012/03/25 10:47:00.000   65.652471541  -18.074899069    80.2432   4   5   1.1075   0.5222   4.8748  -0.0303   0.8484   1.7072   0.00    0.0
2012/03/25 10:47:01.000   65.652484344  -18.074897809    84.3634   4   5   1.1070   0.5222   4.8701  -0.0341   0.8481   1.7051   0.00    0.0
2012/03/25 10:47:02.000   65.652482803  -18.074894696    79.2884   4   5   1.1065   0.5223   4.8654  -0.0375   0.8478   1.7030   0.00    0.0
2012/03/25 10:47:03.000   65.652491097  -18.074897274    82.8355   4   5   1.1060   0.5223   4.8607  -0.0406   0.8475   1.7008   0.00    0.0
2012/03/25 10:47:04.000   65.652489273  -18.074899947    85.9399   4   5   1.1055   0.5224   4.8560  -0.0435   0.8472   1.6987   0.00    0.0
2012/03/25 10:47:05.000   65.652480419  -18.074897143    83.0775   4   5   1.1050   0.5224   4.8514  -0.0463   0.8469   1.6966   0.00    0.0
2012/03/25 10:47:06.000   65.652479495  -18.074887485    81.9798   4   5   1.1045   0.5225   4.8467  -0.0488   0.8466   1.6944   0.00    0.0
2012/03/25 10:47:07.000   65.652483489  -18.074903633    82.0397   4   5   1.1040   0.5226   4.8420  -0.0513   0.8463   1.6923   0.00    0.0
2012/03/25 10:47:08.000   65.652487020  -18.074903550    83.2555   4   5   1.1035   0.5226   4.8374  -0.0536   0.8461   1.6902   0.00    0.0
2012/03/25 10:47:09.000   65.652479731  -18.074891225    80.8630   4   5   1.1030   0.5227   4.8327  -0.0558   0.8458   1.6881   0.00    0.0
2012/03/25 10:47:10.000   65.652482244  -18.074893520    83.9399   4   5   1.1025   0.5227   4.8281  -0.0579   0.8455   1.6860   0.00    0.0
2012/03/25 10:47:11.000   65.652472224  -18.074893437    81.2139   4   5   1.1020   0.5228   4.8235  -0.0600   0.8452   1.6839   0.00    0.0
2012/03/25 10:47:12.000   65.652490070  -18.074890717    85.0828   4   5   1.1015   0.5228   4.8188  -0.0620   0.8449   1.6818   0.00    0.0
2012/03/25 10:47:13.000   65.652480300  -18.074894757    82.0375   4   5   1.1010   0.5229   4.8142  -0.0639   0.8446   1.6797   0.00    0.0
2012/03/25 10:47:14.000   65.652486804  -18.074905637    79.7409   4   5   1.1005   0.5229   4.8096  -0.0658   0.8443   1.6776   0.00    0.0
2012/03/25 10:47:15.000   65.652479179  -18.074889972    81.8757   4   5   1.1000   0.5230   4.8050  -0.0676   0.8440   1.6755   0.00    0.0
2012/03/25 10:47:16.000   65.652480057  -18.074893395    81.6355   4   5   1.0995   0.5231   4.8004  -0.0694   0.8438   1.6734   0.00    0.0
2012/03/25 10:47:17.000   65.652478764  -18.074898838    84.0601   4   5   1.0990   0.5231   4.7959  -0.0711   0.8435   1.6713   0.00    0.0
2012/03/25 10:47:18.000   65.652480997  -18.074889056    81.4217   4   5   1.0985   0.5232   4.7913  -0.0728   0.8432   1.6692   0.00    0.0
2012/03/25 10:47:19.000   65.652481777  -18.074885760    82.0229   4   5   1.0981   0.5232   4.7867  -0.0745   0.8429   1.6672   0.00    0.0
2012/03/25 10:47:20.000   65.652497481  -18.074882521    86.6128   4   5   1.0976   0.5233   4.7822  -0.0761   0.8426   1.6651   0.00    0.0
2012/03/25 10:47:21.000   65.652479134  -18.074887871    81.3954   4   5   1.0971   0.5233   4.7776  -0.0776   0.8423   1.6630   0.00    0.0
2012/03/25 10:47:22.000   65.652490901  -18.074891846    82.0961   4   5   1.0966   0.5234   4.7731  -0.0792   0.8421   1.6609   0.00    0.0
2012/03/25 10:47:23.000   65.652475538  -18.074899659    78.1094   4   5   1.0961   0.5234   4.7686  -0.0807   0.8418   1.6589   0.00    0.0
2012/03/25 10:47:24.000   65.652482306  -18.074903088    80.0182   4   5   1.0956   0.5235   4.7641  -0.0822   0.8415   1.6568   0.00    0.0
2012/03/25 10:47:25.000   65.652473767  -18.074901759    77.4183   4   5   1.0952   0.5236   4.7595  -0.0836   0.8412   1.6547   0.00    0.0
2012/03/25 10:47:26.000   65.652483182  -18.074886122    82.7587   4   5   1.0947   0.5236   4.7550  -0.0851   0.8409   1.6527   0.00    0.0
2012/03/25 10:47:27.000   65.652486656  -18.074897499    84.2154   4   5   1.0942   0.5237   4.7505  -0.0865   0.8406   1.6506   0.00    0.0
2012/03/25 10:47:28.000   65.652477183  -18.074896294    81.7117   4   5   1.0937   0.5237   4.7461  -0.0879   0.8404   1.6486   0.00    0.0
2012/03/25 10:47:29.000   65.652483717  -18.074885774    91.6007   4   5   1.0933   0.5238   4.7416  -0.0892   0.8401   1.6465   0.00    0.0
2012/03/25 10:47:30.000   65.652484132  -18.074884507    87.1056   4   5   1.0928   0.5238   4.7371  -0.0906   0.8398   1.6445   0.00    0.0
2012/03/25 10:47:31.000   65.652485548  -18.074894160    87.2584   4   5   1.0923   0.5239   4.7326  -0.0919   0.8395   1.6424   0.00    0.0
2012/03/25 10:47:32.000   65.652481513  -18.074888193    78.8661   4   5   1.0918   0.5239   4.7282  -0.0932   0.8392   1.6404   0.00    0.0
2012/03/25 10:47:33.000   65.652495778  -18.074896842    88.2830   4   5   1.0914   0.5240   4.7237  -0.0945   0.8390   1.6384   0.00    0.0
2012/03/25 10:47:34.000   65.652472388  -18.074899793    79.8592   4   5   1.0909   0.5241   4.7193  -0.0957   0.8387   1.6363   0.00    0.0
2012/03/25 10:47:35.000   65.652477943  -18.074899192    80.0567   4   5   1.0904   0.5241   4.7149  -0.0970   0.8384   1.6343   0.00    0.0
2012/03/25 10:47:36.000   65.652483943  -18.074898827    81.9090   4   5   1.0900   0.5242   4.7104  -0.0982   0.8381   1.6323   0.00    0.0
2012/03/25 10:47:37.000   65.652482664  -18.074898406    84.3909   4   5   1.0895   0.5242   4.7060  -0.0994   0.8379   1.6302   0.00    0.0
2012/03/25 10:47:38.000   65.652479134  -18.074893805    83.6314   4   5   1.0890   0.5243   4.7016  -0.1006   0.8376   1.6282   0.00    0.0
2012/03/25 10:47:39.000   65.652492541  -18.074904285    84.6099   4   5   1.0886   0.5243   4.6972  -0.1018   0.8373   1.6262   0.00    0.0
2012/03/25 10:47:40.000   65.652484787  -18.074894189    83.2398   4   5   1.0881   0.5244   4.6928  -0.1030   0.8370   1.6242   0.00    0.0
2012/03/25 10:47:41.000   65.652483825  -18.074892849    82.9239   4   5   1.0877   0.5245   4.6884  -0.1041   0.8368   1.6222   0.00    0.0
2012/03/25 10:47:42.000   65.652475730  -18.074894038    80.6711   4   5   1.0872   0.5245   4.6841  -0.1053   0.8365   1.6202   0.00    0.0
2012/03/25 10:47:43.000   65.652469908  -18.074891012    79.4804   4   5   1.0867   0.5246   4.6797  -0.1064   0.8362   1.6182   0.00    0.0
2012/03/25 10:47:44.000   65.652488626  -18.074899848    80.1553   4   5   1.0863   0.5246   4.6753  -0.1075   0.8359   1.6162   0.00    0.0
2012/03/25 10:47:45.000   65.652473001  -18.074899887    80.4464   4   5   1.0858   0.5247   4.6710  -0.1086   0.8357   1.6142   0.00    0.0
2012/03/25 10:47:46.000   65.652480565  -18.074896541    85.4124   4   5   1.0854   0.5247   4.6667  -0.1097   0.8354   1.6122   0.00    0.0
2012/03/25 10:47:47.000   65.652477018  -18.074900496    78.4422   4   5   1.0849   0.5248   4.6623  -0.1108   0.8351   1.6102   0.00    0.0
2012/03/25 10:47:48.000   65.652478417  -18.074897505    79.2975   4   5   1.0845   0.5249   4.6580  -0.1119   0.8349   1.6082   0.00    0.0
2012/03/25 10:47:49.000   65.652481715  -18.074893364    82.3140   4   6   1.0815   0.4895   2.7952  -0.1639  -0.0914   1.5176   0.00    0.0
2012/03/25 10:47:50.000   65.652481362  -18.074900267    81.8403   4   6   1.0811   0.4895   2.7939  -0.1640  -0.0917   1.5169   0.00    0.0
2012/03/25 10:47:51.000   65.652480539  -18.074894634    81.6422   4   6   1.0807   0.4896   2.7926  -0.1642  -0.0919   1.5161   0.00    0.0
2012/03/25 10:47:52.000   65.652488821  -18.074893369    83.1778   4   6   1.0803   0.4896   2.7912  -0.1643  -0.0922   1.5154   0.00    0.0
2012/03/25 10:47:53.000   65.652486936  -18.074906039    83.2497   4   6   1.0799   0.4896   2.7899  -0.1645  -0.0924   1.5146   0.00    0.0
2012/03/25 10:47:54.000   65.652477400  -18.074907536    80.6449   4   6   1.0796   0.4896   2.7886  -0.1647  -0.0927   1.5139   0.00    0.0
2012/03/25 10:47:55.000   65.652479096  -18.074901093    80.7166   4   6   1.0792   0.4896   2.7873  -0.1648  -0.0930   1.5132   0.00    0.0
2012/03/25 10:47:56.000   65.652487557  -18.074896421    83.4573   4   6   1.0788   0.4896   2.7860  -0.1650  -0.0932   1.5124   0.00    0.0
2012/03/25 10:47:57.000   65.652483288  -18.074897699    82.7532   4   6   1.0784   0.4897   2.7847  -0.1652  -0.0935   1.5117   0.00    0.0
2012/03/25 10:47:58.000   65.652470715  -18.074897022    79.2708   4   6   1.0780   0.4897   2.7834  -0.1653  -0.0937   1.5109   0.00    0.0
2012/03/25 10:47:59.000   65.652473928  -18.074895329    79.0653   4   6   1.0777   0.4897   2.7821  -0.1655  -0.0939   1.5102   0.00    0.0
2012/03/25 10:48:00.000   65.652475055  -18.074892360    78.7480   4   6   1.0773   0.4897   2.7808  -0.1657  -0.0942   1.5095   0.00    0.0
2012/03/25 10:48:01.000   65.652478133  -18.074900303    80.6705   4   6   1.0769   0.4897   2.7794  -0.1658  -0.0944   1.5087   0.00    0.0
2012/03/25 10:48:02.000   65.652488374  -18.074900569    83.3360   4   6   1.0765   0.4897   2.7781  -0.1660  -0.0947   1.5080   0.00    0.0
2012/03/25 10:48:03.000   65.652479042  -18.074896652    81.5846   4   6   1.0761   0.4898   2.7768  -0.1661  -0.0949   1.5072   0.00    0.0
2012/03/25 10:48:04.000   65.652475280  -18.074896489    78.8399   4   6   1.0758   0.4898   2.7755  -0.1663  -0.0952   1.5065   0.00    0.0
2012/03/25 10:48:05.000   65.652471581  -18.074902588    80.0956   4   6   1.0754   0.4898   2.7742  -0.1665  -0.0954   1.5058   0.00    0.0
2012/03/25 10:48:06.000   65.652487563  -18.074895939    84.5132   4   6   1.0750   0.4898   2.7729  -0.1666  -0.0957   1.5050   0.00    0.0
2012/03/25 10:48:07.000   65.652477209  -18.074889862    80.1825   4   6   1.0746   0.4898   2.7716  -0.1668  -0.0959   1.5043   0.00    0.0
2012/03/25 10:48:08.000   65.652480002  -18.074899137    81.1307   4   6   1.0743   0.4898   2.7703  -0.1669  -0.0961   1.5035   0.00    0.0
2012/03/25 10:48:09.000   65.652475590  -18.074891473    79.6429   4   6   1.0739   0.4899   2.7690  -0.1671  -0.0964   1.5028   0.00    0.0
2012/03/25 10:48:10.000   65.652470830  -18.074886085    76.9203   4   6   1.0735   0.4899   2.7677  -0.1673  -0.0966   1.5021   0.00    0.0
2012/03/25 10:48:11.000   65.652490899  -18.074898794    83.0785   4   6   1.0731   0.4899   2.7664  -0.1674  -0.0969   1.5013   0.00    0.0
2012/03/25 10:48:12.000   65.652481559  -18.074899320    80.8103   4   6   1.0727   0.4899   2.7651  -0.1676  -0.0971   1.5006   0.00    0.0
2012/03/25 10:48:13.000   65.652472876  -18.074894421    79.0802   4   6   1.0724   0.4899   2.7638  -0.1677  -0.0973   1.4999   0.00    0.0
2012/03/25 10:48:14.000   65.652478505  -18.074894175    80.1446   4   6   1.0720   0.4899   2.7625  -0.1679  -0.0976   1.4991   0.00    0.0
2012/03/25 10:48:15.000   65.652485942  -18.074907613    82.9491   4   6   1.0716   0.4900   2.7612  -0.1680  -0.0978   1.4984   0.00    0.0
2012/03/25 10:48:16.000   65.652478142  -18.074897055    81.4744   4   6   1.0712   0.4900   2.7599  -0.1682  -0.0980   1.4976   0.00    0.0
2012/03/25 10:48:17.000   65.652485026  -18.074899015    81.2275   4   6   1.0708   0.4900   2.7586  -0.1684  -0.0983   1.4969   0.00    0.0
2012/03/25 10:48:18.000   65.652477874  -18.074901740    80.2809   4   6   1.0705   0.4900   2.7573  -0.1685  -0.0985   1.4962   0.00    0.0
2012/03/25 10:48:19.000   65.652485610  -18.074894277    83.4612   4   6   1.0701   0.4900   2.7560  -0.1687  -0.0987   1.4954   0.00    0.0
2012/03/25 10:48:20.000   65.652475869  -18.074900421    80.3899   4   6   1.0697   0.4900   2.7547  -0.1688  -0.0990   1.4947   0.00    0.0
2012/03/25 10:48:21.000   65.652478089  -18.074910286    79.7695   4   6   1.0693   0.4901   2.7534  -0.1690  -0.0992   1.4940   0.00    0.0
2012/03/25 10:48:22.000   65.652475665  -18.074896331    81.8045   4   6   1.0690   0.4901   2.7521  -0.1691  -0.0994   1.4932   0.00    0.0
2012/03/25 10:48:23.000   65.652472155  -18.074894244    79.5156   4   6   1.0686   0.4901   2.7508  -0.1693  -0.0997   1.4925   0.00    0.0
2012/03/25 10:48:24.000   65.652480527  -18.074899873    81.0614   4   6   1.0682   0.4901   2.7495  -0.1694  -0.0999   1.4918   0.00    0.0
2012/03/25 10:48:25.000   65.652488269  -18.074897203    81.7809   4   6   1.0678   0.4901   2.7483  -0.1696  -0.1001   1.4910   0.00    0.0
2012/03/25 10:48:26.000   65.652470114  -18.074896183    77.6872   4   6   1.0675   0.4901   2.7470  -0.1698  -0.1003   1.4903   0.00    0.0
2012/03/25 10:48:27.000   65.652475655  -18.074895984    80.6464   4   6   1.0671   0.4902   2.7457  -0.1699  -0.1006   1.4896   0.00    0.0
2012/03/25 10:48:28.000   65.652483780  -18.074905252    81.5466   4   6   1.0667   0.4902   2.7444  -0.1701  -0.1008   1.4888   0.00    0.0
2012/03/25 10:48:29.000   65.652475978  -18.074893745    79.4402   4   6   1.0663   0.4902   2.7431  -0.1702  -0.1010   1.4881   0.00    0.0
2012/03/25 10:48:30.000   65.652480471  -18.074897790    80.6775   4   6   1.0659   0.4902   2.7418  -0.1704  -0.1012   1.4874   0.00    0.0
2012/03/25 10:48:31.000   65.652487091  -18.074895471    84.6100   4   6   1.0656   0.4902   2.7405  -0.1705  -0.1015   1.4866   0.00    0.0
2012/03/25 10:48:32.000   65.652477211  -18.074892836    80.3501   4   6   1.0652   0.4902   2.7392  -0.1707  -0.1017   1.4859   0.00    0.0
2012/03/25 10:48:33.000   65.652472721  -18.074892788    80.3211   4   6   1.0648   0.4903   2.7380  -0.1708  -0.1019   1.4852   0.00    0.0
2012/03/25 10:48:34.000   65.652482129  -18.074902270    81.6617   4   6   1.0644   0.4903   2.7367  -0.1710  -0.1021   1.4844   0.00    0.0
2012/03/25 10:48:35.000   65.652481996  -18.074906926    81.1010   4   6   1.0641   0.4903   2.7354  -0.1711  -0.1024   1.4837   0.00    0.0
2012/03/25 10:48:36.000   65.652482916  -18.074902836    82.2879   4   6   1.0637   0.4903   2.7341  -0.1713  -0.1026   1.4830   0.00    0.0
2012/03/25 10:48:37.000   65.652472703  -18.074891874    79.3439   4   6   1.0633   0.4903   2.7328  -0.1714  -0.1028   1.4823   0.00    0.0
2012/03/25 10:48:38.000   65.652476046  -18.074887900    80.4586   4   6   1.0629   0.4903   2.7315  -0.1716  -0.1030   1.4815   0.00    0.0
2012/03/25 10:48:39.000   65.652480623  -18.074894151    81.2620   4   6   1.0626   0.4904   2.7303  -0.1717  -0.1032   1.4808   0.00    0.0
2012/03/25 10:48:40.000   65.652474068  -18.074891465    81.3567   4   6   1.0622   0.4904   2.7290  -0.1719  -0.1035   1.4801   0.00    0.0
2012/03/25 10:48:41.000   65.652483984  -18.074903917    83.5286   4   6   1.0618   0.4904   2.7277  -0.1720  -0.1037   1.4793   0.00    0.0
2012/03/25 10:48:42.000   65.652483034  -18.074902155    80.7644   4   6   1.0614   0.4904   2.7264  -0.1722  -0.1039   1.4786   0.00    0.0
2012/03/25 10:48:43.000   65.652475850  -18.074897282    80.7305   4   6   1.0611   0.4904   2.7251  -0.1723  -0.1041   1.4779   0.00    0.0
2012/03/25 10:48:44.000   65.652480516  -18.074904515    81.2409   4   6   1.0607   0.4904   2.7239  -0.1725  -0.1043   1.4772   0.00    0.0
2012/03/25 10:48:45.000   65.652486382  -18.074906060    82.2007   4   6   1.0603   0.4905   2.7226  -0.1726  -0.1045   1.4764   0.00    0.0
2012/03/25 10:48:46.000   65.652487912  -18.074888202    82.9899   4   6   1.0599   0.4905   2.7213  -0.1728  -0.1048   1.4757   0.00    0.0
2012/03/25 10:48:47.000   65.652475023  -18.074899486    80.3848   4   6   1.0596   0.4905   2.7200  -0.1729  -0.1050   1.4750   0.00    0.0
2012/03/25 10:48:48.000   65.652478659  -18.074897961    79.2398   4   6   1.0592   0.4905   2.7188  -0.1731  -0.1052   1.4742   0.00    0.0
2012/03/25 10:48:49.000   65.652475957  -18.074904662    80.4125   4   6   1.0588   0.4905   2.7175  -0.1732  -0.1054   1.4735   0.00    0.0
2012/03/25 10:48:50.000   65.652482386  -18.074893114    80.5513   4   6   1.0584   0.4905   2.7162  -0.1734  -0.1056   1.4728   0.00    0.0
2012/03/25 10:48:51.000   65.652482550  -18.074893034    81.9552   4   6   1.0581   0.4906   2.7150  -0.1735  -0.1058   1.4721   0.00    0.0
2012/03/25 10:48:52.000   65.652485716  -18.074903465    82.5231   4   6   1.0577   0.4906   2.7137  -0.1737  -0.1060   1.4713   0.00    0.0
2012/03/25 10:48:53.000   65.652478778  -18.074887685    81.5673   4   6   1.0573   0.4906   2.7124  -0.1738  -0.1062   1.4706   0.00    0.0
2012/03/25 10:48:54.000   65.652479345  -18.074900367    81.3231   4   6   1.0570   0.4906   2.7111  -0.1740  -0.1065   1.4699   0.00    0.0
2012/03/25 10:48:55.000   65.652481624  -18.074887866    81.9699   4   6   1.0566   0.4906   2.7099  -0.1741  -0.1067   1.4692   0.00    0.0
2012/03/25 10:48:56.000   65.652474295  -18.074897469    80.5424   4   6   1.0562   0.4906   2.7086  -0.1743  -0.1069   1.4684   0.00    0.0
2012/03/25 10:48:57.000   65.652481579  -18.074886900    80.9938   4   6   1.0558   0.4907   2.7073  -0.1744  -0.1071   1.4677   0.00    0.0
2012/03/25 10:48:58.000   65.652476726  -18.074895071    81.0189   4   6   1.0555   0.4907   2.7061  -0.1746  -0.1073   1.4670   0.00    0.0
2012/03/25 10:48:59.000   65.652476707  -18.074894701    82.3294   4   6   1.0551   0.4907   2.7048  -0.1747  -0.1075   1.4663   0.00    0.0
2012/03/25 10:49:00.000   65.652477597  -18.074888890    80.3385   4   6   1.0547   0.4907   2.7036  -0.1749  -0.1077   1.4656   0.00    0.0
2012/03/25 10:49:01.000   65.652471948  -18.074884548    78.3969   4   6   1.0543   0.4907   2.7023  -0.1750  -0.1079   1.4648   0.00    0.0
2012/03/25 10:49:02.000   65.652484575  -18.074897945    80.3732   4   6   1.0540   0.4907   2.7010  -0.1752  -0.1081   1.4641   0.00    0.0
2012/03/25 10:49:03.000   65.652473020  -18.074902296    79.9128   4   6   1.0536   0.4908   2.6998  -0.1753  -0.1083   1.4634   0.00    0.0
2012/03/25 10:49:04.000   65.652478761  -18.074895597    82.4923   4   6   1.0532   0.4908   2.6985  -0.1754  -0.1085   1.4627   0.00    0.0
2012/03/25 10:49:05.000   65.652482885  -18.074897840    83.6579   4   6   1.0529   0.4908   2.6972  -0.1756  -0.1087   1.4619   0.00    0.0
2012/03/25 10:49:06.000   65.652481642  -18.074904183    81.8003   4   6   1.0525   0.4908   2.6960  -0.1757  -0.1089   1.4612   0.00    0.0
2012/03/25 10:49:07.000   65.652487112  -18.074901536    83.3482   4   6   1.0521   0.4908   2.6947  -0.1759  -0.1091   1.4605   0.00    0.0
2012/03/25 10:49:08.000   65.652476485  -18.074890068    81.3127   4   6   1.0517   0.4908   2.6935  -0.1760  -0.1093   1.4598   0.00    0.0
2012/03/25 10:49:09.000   65.652476707  -18.074893284    81.2508   4   6   1.0514   0.4909   2.6922  -0.1762  -0.1095   1.4591   0.00    0.0
2012/03/25 10:49:10.000   65.652478926  -18.074897075    82.2341   4   6   1.0510   0.4909   2.6910  -0.1763  -0.1097   1.4583   0.00    0.0
2012/03/25 10:49:11.000   65.652484786  -18.074896538    83.5663   4   6   1.0506   0.4909   2.6897  -0.1764  -0.1099   1.4576   0.00    0.0
2012/03/25 10:49:12.000   65.652473999  -18.074894897    79.9230   4   6   1.0503   0.4909   2.6884  -0.1766  -0.1101   1.4569   0.00    0.0
2012/03/25 10:49:13.000   65.652478842  -18.074895344    83.0143   4   6   1.0499   0.4909   2.6872  -0.1767  -0.1103   1.4562   0.00    0.0
2012/03/25 10:49:14.000   65.652482091  -18.074890951    82.6816   4   6   1.0495   0.4909   2.6859  -0.1769  -0.1105   1.4555   0.00    0.0
2012/03/25 10:49:15.000   65.652470405  -18.074882548    81.6999   4   6   1.0492   0.4910   2.6847  -0.1770  -0.1107   1.4547   0.00    0.0
2012/03/25 10:49:16.000   65.652477699  -18.074889957    81.4005   4   6   1.0488   0.4910   2.6834  -0.1772  -0.1109   1.4540   0.00    0.0
2012/03/25 10:49:17.000   65.652482925  -18.074893297    82.3447   4   6   1.0484   0.4910   2.6822  -0.1773  -0.1111   1.4533   0.00    0.0
2012/03/25 10:49:18.000   65.652474767  -18.074902873    79.9719   4   6   1.0480   0.4910   2.6809  -0.1774  -0.1113   1.4526   0.00    0.0
2012/03/25 10:49:19.000   65.652469744  -18.074898949    80.4901   4   6   1.0477   0.4910   2.6797  -0.1776  -0.1115   1.4519   0.00    0.0
2012/03/25 10:49:20.000   65.652490030  -18.074899094    84.0148   4   6   1.0473   0.4910   2.6784  -0.1777  -0.1117   1.4512   0.00    0.0
2012/03/25 10:49:21.000   65.652477035  -18.074894401    80.0926   4   6   1.0469   0.4911   2.6772  -0.1779  -0.1119   1.4504   0.00    0.0
2012/03/25 10:49:22.000   65.652476400  -18.074896150    82.1013   4   6   1.0466   0.4911   2.6759  -0.1780  -0.1121   1.4497   0.00    0.0
2012/03/25 10:49:23.000   65.652474528  -18.074891488    81.8062   4   6   1.0462   0.4911   2.6747  -0.1781  -0.1123   1.4490   0.00    0.0
2012/03/25 10:49:24.000   65.652478363  -18.074894462    81.4084   4   6   1.0458   0.4911   2.6735  -0.1783  -0.1125   1.4483   0.00    0.0
2012/03/25 10:49:25.000   65.652478513  -18.074899046    82.6216   4   6   1.0455   0.4911   2.6722  -0.1784  -0.1127   1.4476   0.00    0.0
2012/03/25 10:49:26.000   65.652473200  -18.074888690    79.9700   4   6   1.0451   0.4911   2.6710  -0.1786  -0.1129   1.4469   0.00    0.0
2012/03/25 10:49:27.000   65.652481828  -18.074890106    82.3405   4   6   1.0447   0.4912   2.6697  -0.1787  -0.1131   1.4462   0.00    0.0
2012/03/25 10:49:28.000   65.652481727  -18.074897505    82.3651   4   6   1.0444   0.4912   2.6685  -0.1788  -0.1133   1.4454   0.00    0.0
2012/03/25 10:49:29.000   65.652483210  -18.074904540    82.2767   4   6   1.0440   0.4912   2.6672  -0.1790  -0.1135   1.4447   0.00    0.0
2012/03/25 10:49:30.000   65.652480258  -18.074896788    83.0300   4   6   1.0436   0.4912   2.6660  -0.1791  -0.1136   1.4440   0.00    0.0
2012/03/25 10:49:31.000   65.652476271  -18.074895316    80.9141   4   6   1.0433   0.4912   2.6648  -0.1793  -0.1138   1.4433   0.00    0.0
2012/03/25 10:49:32.000   65.652473254  -18.074897999    81.6101   4   6   1.0429   0.4913   2.6635  -0.1794  -0.1140   1.4426   0.00    0.0
2012/03/25 10:49:33.000   65.652471567  -18.074894335    80.1640   4   6   1.0425   0.4913   2.6623  -0.1795  -0.1142   1.4419   0.00    0.0
2012/03/25 10:49:34.000   65.652471483  -18.074896990    81.6865   4   6   1.0422   0.4913   2.6610  -0.1797  -0.1144   1.4412   0.00    0.0
2012/03/25 10:49:35.000   65.652467659  -18.074899814    80.0081   4   6   1.0418   0.4913   2.6598  -0.1798  -0.1146   1.4405   0.00    0.0
2012/03/25 10:49:36.000   65.652473381  -18.074888390    79.3550   4   6   1.0414   0.4913   2.6586  -0.1800  -0.1148   1.4397   0.00    0.0
2012/03/25 10:49:37.000   65.652467976  -18.074892162    80.1144   4   6   1.0410   0.4913   2.6573  -0.1801  -0.1150   1.4390   0.00    0.0
2012/03/25 10:49:38.000   65.652481992  -18.074906446    83.6839   4   6   1.0407   0.4914   2.6561  -0.1802  -0.1152   1.4383   0.00    0.0
2012/03/25 10:49:39.000   65.652469274  -18.074893518    79.0400   4   6   1.0403   0.4914   2.6549  -0.1804  -0.1153   1.4376   0.00    0.0
2012/03/25 10:49:40.000   65.652465483  -18.074895830    78.6284   4   6   1.0400   0.4914   2.6536  -0.1805  -0.1155   1.4369   0.00    0.0
2012/03/25 10:49:41.000   65.652469230  -18.074899005    79.3220   4   6   1.0396   0.4914   2.6524  -0.1806  -0.1157   1.4362   0.00    0.0
2012/03/25 10:49:42.000   65.652474775  -18.074898530    81.2787   4   6   1.0392   0.4914   2.6512  -0.1808  -0.1159   1.4355   0.00    0.0
2012/03/25 10:49:43.000   65.652475016  -18.074896823    81.8008   4   6   1.0389   0.4914   2.6499  -0.1809  -0.1161   1.4348   0.00    0.0
2012/03/25 10:49:44.000   65.652471646  -18.074894729    79.6549   4   6   1.0385   0.4915   2.6487  -0.1810  -0.1163   1.4341   0.00    0.0
2012/03/25 10:49:45.000   65.652472638  -18.074901497    81.0521   4   6   1.0381   0.4915   2.6475  -0.1812  -0.1165   1.4334   0.00    0.0
2012/03/25 10:49:46.000   65.652477285  -18.074908332    80.8819   4   6   1.0378   0.4915   2.6463  -0.1813  -0.1166   1.4326   0.00    0.0
2012/03/25 10:49:47.000   65.652477888  -18.074899873    81.6666   4   6   1.0374   0.4915   2.6450  -0.1814  -0.1168   1.4319   0.00    0.0
2012/03/25 10:49:48.000   65.652464452  -18.074903683    78.4580   4   6   1.0370   0.4915   2.6438  -0.1816  -0.1170   1.4312   0.00    0.0
2012/03/25 10:49:49.000   65.652463427  -18.074904709    79.2183   4   6   1.0367   0.4915   2.6426  -0.1817  -0.1172   1.4305   0.00    0.0
2012/03/25 10:49:50.000   65.652471132  -18.074904927    81.3236   4   6   1.0363   0.4916   2.6414  -0.1819  -0.1174   1.4298   0.00    0.0
2012/03/25 10:49:51.000   65.652465309  -18.074906394    79.9073   4   6   1.0359   0.4916   2.6401  -0.1820  -0.1176   1.4291   0.00    0.0
2012/03/25 10:49:52.000   65.652465494  -18.074910428    79.0462   4   6   1.0356   0.4916   2.6389  -0.1821  -0.1177   1.4284   0.00    0.0
2012/03/25 10:49:53.000   65.652462959  -18.074908775    78.3392   4   6   1.0352   0.4916   2.6377  -0.1823  -0.1179   1.4277   0.00    0.0
2012/03/25 10:49:54.000   65.652471809  -18.074899905    80.5641   4   6   1.0348   0.4916   2.6365  -0.1824  -0.1181   1.4270   0.00    0.0
2012/03/25 10:49:55.000   65.652466639  -18.074908242    78.6975   4   6   1.0345   0.4916   2.6353  -0.1825  -0.1183   1.4263   0.00    0.0
2012/03/25 10:49:56.000   65.652469472  -18.074907601    78.9549   4   6   1.0341   0.4917   2.6340  -0.1827  -0.1185   1.4256   0.00    0.0
2012/03/25 10:49:57.000   65.652471892  -18.074909261    79.8469   4   6   1.0337   0.4917   2.6328  -0.1828  -0.1186   1.4249   0.00    0.0
2012/03/25 10:49:58.000   65.652470881  -18.074906369    78.6900   4   6   1.0334   0.4917   2.6316  -0.1829  -0.1188   1.4242   0.00    0.0
2012/03/25 10:49:59.000   65.652464168  -18.074923540    78.0414   4   6   1.0330   0.4917   2.6304  -0.1830  -0.1190   1.4235   0.00    0.0
2012/03/25 10:50:00.000   65.652470366  -18.074916209    78.7225   4   6   1.0327   0.4917   2.6292  -0.1832  -0.1192   1.4228   0.00    0.0
2012/03/25 10:50:01.000   65.652466764  -18.074911920    79.0861   4   6   1.0323   0.4917   2.6279  -0.1833  -0.1193   1.4221   0.00    0.0
2012/03/25 10:50:02.000   65.652480497  -18.074903180    82.6350   4   6   1.0319   0.4918   2.6267  -0.1834  -0.1195   1.4214   0.00    0.0
2012/03/25 10:50:03.000   65.652475051  -18.074915093    81.5326   4   6   1.0316   0.4918   2.6255  -0.1836  -0.1197   1.4207   0.00    0.0
2012/03/25 10:50:04.000   65.652470027  -18.074904819    80.0884   4   6   1.0312   0.4918   2.6243  -0.1837  -0.1199   1.4200   0.00    0.0
2012/03/25 10:50:05.000   65.652469820  -18.074905718    80.5599   4   6   1.0308   0.4918   2.6231  -0.1838  -0.1200   1.4193   0.00    0.0
2012/03/25 10:50:06.000   65.652475037  -18.074907792    81.5623   4   6   1.0305   0.4918   2.6219  -0.1840  -0.1202   1.4186   0.00    0.0
2012/03/25 10:50:07.000   65.652468821  -18.074903034    79.6179   4   6   1.0301   0.4918   2.6207  -0.1841  -0.1204   1.4179   0.00    0.0
2012/03/25 10:50:08.000   65.652462691  -18.074906381    79.0374   4   6   1.0298   0.4919   2.6195  -0.1842  -0.1206   1.4172   0.00    0.0
2012/03/25 10:50:09.000   65.652473436  -18.074917045    82.6012   4   6   1.0294   0.4919   2.6183  -0.1844  -0.1207   1.4165   0.00    0.0
2012/03/25 10:50:10.000   65.652474352  -18.074906418    81.4566   4   6   1.0290   0.4919   2.6170  -0.1845  -0.1209   1.4158   0.00    0.0
2012/03/25 10:50:11.000   65.652467995  -18.074910978    79.9485   4   6   1.0287   0.4919   2.6158  -0.1846  -0.1211   1.4151   0.00    0.0
2012/03/25 10:50:12.000   65.652476535  -18.074916168    81.1033   4   6   1.0283   0.4919   2.6146  -0.1848  -0.1213   1.4144   0.00    0.0
2012/03/25 10:50:13.000   65.652470455  -18.074917080    79.8298   4   6   1.0280   0.4919   2.6134  -0.1849  -0.1214   1.4137   0.00    0.0
2012/03/25 10:50:14.000   65.652476622  -18.074910206    81.4897   4   6   1.0276   0.4920   2.6122  -0.1850  -0.1216   1.4130   0.00    0.0
2012/03/25 10:50:15.000   65.652462153  -18.074911918    79.6906   4   6   1.0272   0.4920   2.6110  -0.1851  -0.1218   1.4123   0.00    0.0
2012/03/25 10:50:16.000   65.652462927  -18.074917185    78.7552   4   6   1.0269   0.4920   2.6098  -0.1853  -0.1219   1.4116   0.00    0.0
2012/03/25 10:50:17.000   65.652471698  -18.074912577    80.2766   4   6   1.0265   0.4920   2.6086  -0.1854  -0.1221   1.4109   0.00    0.0
2012/03/25 10:50:18.000   65.652471911  -18.074918970    78.9514   4   6   1.0262   0.4920   2.6074  -0.1855  -0.1223   1.4102   0.00    0.0
2012/03/25 10:50:19.000   65.652471639  -18.074912146    79.8868   4   6   1.0258   0.4920   2.6062  -0.1857  -0.1225   1.4095   0.00    0.0
2012/03/25 10:50:20.000   65.652472062  -18.074916542    78.8421   4   6   1.0254   0.4921   2.6050  -0.1858  -0.1226   1.4088   0.00    0.0
2012/03/25 10:50:21.000   65.652464718  -18.074919365    79.5288   4   6   1.0251   0.4921   2.6038  -0.1859  -0.1228   1.4081   0.00    0.0
2012/03/25 10:50:22.000   65.652475101  -18.074914425    82.0675   4   6   1.0247   0.4921   2.6026  -0.1860  -0.1230   1.4074   0.00    0.0
2012/03/25 10:50:23.000   65.652469733  -18.074916299    79.0918   4   6   1.0244   0.4921   2.6014  -0.1862  -0.1231   1.4067   0.00    0.0
2012/03/25 10:50:24.000   65.652470629  -18.074918008    80.4924   4   6   1.0240   0.4921   2.6002  -0.1863  -0.1233   1.4060   0.00    0.0
2012/03/25 10:50:25.000   65.652470224  -18.074918110    80.4272   4   6   1.0236   0.4922   2.5990  -0.1864  -0.1235   1.4053   0.00    0.0
2012/03/25 10:50:26.000   65.652464257  -18.074907176    79.3628   4   6   1.0233   0.4922   2.5978  -0.1865  -0.1236   1.4046   0.00    0.0
2012/03/25 10:50:27.000   65.652475644  -18.074911720    81.8699   4   6   1.0229   0.4922   2.5966  -0.1867  -0.1238   1.4039   0.00    0.0
2012/03/25 10:50:28.000   65.652470472  -18.074912349    80.0554   4   6   1.0226   0.4922   2.5954  -0.1868  -0.1240   1.4032   0.00    0.0
2012/03/25 10:50:29.000   65.652472513  -18.074913281    79.3509   4   6   1.0222   0.4922   2.5943  -0.1869  -0.1241   1.4025   0.00    0.0
2012/03/25 10:50:30.000   65.652465918  -18.074908647    78.9221   4   6   1.0218   0.4922   2.5931  -0.1870  -0.1243   1.4018   0.00    0.0
2012/03/25 10:50:31.000   65.652472545  -18.074917684    79.6902   4   6   1.0215   0.4923   2.5919  -0.1872  -0.1245   1.4011   0.00    0.0
2012/03/25 10:50:32.000   65.652470006  -18.074916352    78.3943   4   6   1.0211   0.4923   2.5907  -0.1873  -0.1246   1.4005   0.00    0.0
2012/03/25 10:50:33.000   65.652472081  -18.074916025    80.9075   4   6   1.0208   0.4923   2.5895  -0.1874  -0.1248   1.3998   0.00    0.0
2012/03/25 10:50:34.000   65.652463529  -18.074913697    76.6455   4   6   1.0204   0.4923   2.5883  -0.1876  -0.1250   1.3991   0.00    0.0
2012/03/25 10:50:35.000   65.652466019  -18.074908184    78.2938   4   6   1.0201   0.4923   2.5871  -0.1877  -0.1251   1.3984   0.00    0.0
2012/03/25 10:50:36.000   65.652472144  -18.074912616    80.3636   4   6   1.0197   0.4923   2.5859  -0.1878  -0.1253   1.3977   0.00    0.0
2012/03/25 10:50:37.000   65.652476127  -18.074916786    80.7638   4   6   1.0193   0.4924   2.5847  -0.1879  -0.1254   1.3970   0.00    0.0
2012/03/25 10:50:38.000   65.652487188  -18.074913966    82.3086   4   6   1.0190   0.4924   2.5836  -0.1880  -0.1256   1.3963   0.00    0.0
2012/03/25 10:50:39.000   65.652473292  -18.074921052    80.8556   4   6   1.0186   0.4924   2.5824  -0.1882  -0.1258   1.3956   0.00    0.0
2012/03/25 10:50:40.000   65.652479508  -18.074919118    81.3859   4   6   1.0183   0.4924   2.5812  -0.1883  -0.1259   1.3949   0.00    0.0
2012/03/25 10:50:41.000   65.652470757  -18.074909966    78.5245   4   6   1.0179   0.4924   2.5800  -0.1884  -0.1261   1.3942   0.00    0.0
2012/03/25 10:50:42.000   65.652484895  -18.074912931    83.1749   4   6   1.0176   0.4924   2.5788  -0.1885  -0.1263   1.3936   0.00    0.0
2012/03/25 10:50:43.000   65.652469555  -18.074918366    80.3315   4   6   1.0172   0.4925   2.5776  -0.1887  -0.1264   1.3929   0.00    0.0
2012/03/25 10:50:44.000   65.652468333  -18.074913448    78.7349   4   6   1.0169   0.4925   2.5765  -0.1888  -0.1266   1.3922   0.00    0.0
2012/03/25 10:50:45.000   65.652471386  -18.074911869    79.9545   4   6   1.0165   0.4925   2.5753  -0.1889  -0.1267   1.3915   0.00    0.0
2012/03/25 10:50:46.000   65.652469827  -18.074907304    79.5087   4   6   1.0161   0.4925   2.5741  -0.1890  -0.1269   1.3908   0.00    0.0
2012/03/25 10:50:47.000   65.652477250  -18.074907917    80.2539   4   6   1.0158   0.4925   2.5729  -0.1892  -0.1271   1.3901   0.00    0.0
2012/03/25 10:50:48.000   65.652475046  -18.074913422    81.8623   4   6   1.0154   0.4925   2.5718  -0.1893  -0.1272   1.3894   0.00    0.0
2012/03/25 10:50:49.000   65.652478625  -18.074920242    83.1552   4   6   1.0151   0.4926   2.5706  -0.1894  -0.1274   1.3888   0.00    0.0
2012/03/25 10:50:50.000   65.652471614  -18.074918427    78.7318   4   6   1.0147   0.4926   2.5694  -0.1895  -0.1275   1.3881   0.00    0.0
2012/03/25 10:50:51.000   65.652474247  -18.074911691    80.7217   4   6   1.0144   0.4926   2.5682  -0.1896  -0.1277   1.3874   0.00    0.0
2012/03/25 10:50:52.000   65.652471520  -18.074912921    80.2148   4   6   1.0140   0.4926   2.5671  -0.1898  -0.1279   1.3867   0.00    0.0
2012/03/25 10:50:53.000   65.652475242  -18.074913129    81.0767   4   6   1.0137   0.4926   2.5659  -0.1899  -0.1280   1.3860   0.00    0.0
2012/03/25 10:50:54.000   65.652478097  -18.074923621    81.2746   4   6   1.0133   0.4927   2.5647  -0.1900  -0.1282   1.3853   0.00    0.0
2012/03/25 10:50:55.000   65.652486834  -18.074912787    83.2491   4   6   1.0130   0.4927   2.5635  -0.1901  -0.1283   1.3846   0.00    0.0
2012/03/25 10:50:56.000   65.652468366  -18.074912933    78.7792   4   6   1.0126   0.4927   2.5624  -0.1903  -0.1285   1.3840   0.00    0.0
2012/03/25 10:50:57.000   65.652467645  -18.074917190    78.8779   4   6   1.0123   0.4927   2.5612  -0.1904  -0.1286   1.3833   0.00    0.0
2012/03/25 10:50:58.000   65.652474092  -18.074908921    79.5069   4   6   1.0119   0.4927   2.5600  -0.1905  -0.1288   1.3826   0.00    0.0
2012/03/25 10:50:59.000   65.652477915  -18.074914571    80.3015   4   6   1.0115   0.4927   2.5589  -0.1906  -0.1289   1.3819   0.00    0.0
2012/03/25 10:51:00.000   65.652475146  -18.074911329    82.2598   4   6   1.0112   0.4928   2.5577  -0.1907  -0.1291   1.3812   0.00    0.0
2012/03/25 10:51:01.000   65.652470609  -18.074916781    79.5212   4   6   1.0108   0.4928   2.5565  -0.1909  -0.1293   1.3806   0.00    0.0
2012/03/25 10:51:02.000   65.652481567  -18.074912249    82.0153   4   6   1.0105   0.4928   2.5554  -0.1910  -0.1294   1.3799   0.00    0.0
2012/03/25 10:51:03.000   65.652476669  -18.074911576    81.9305   4   6   1.0101   0.4928   2.5542  -0.1911  -0.1296   1.3792   0.00    0.0
2012/03/25 10:51:04.000   65.652479852  -18.074916895    80.6069   4   6   1.0098   0.4928   2.5530  -0.1912  -0.1297   1.3785   0.00    0.0
2012/03/25 10:51:05.000   65.652478602  -18.074909365    81.4883   4   6   1.0094   0.4928   2.5519  -0.1913  -0.1299   1.3778   0.00    0.0
2012/03/25 10:51:06.000   65.652475045  -18.074912323    80.0120   4   6   1.0091   0.4929   2.5507  -0.1915  -0.1300   1.3772   0.00    0.0
2012/03/25 10:51:07.000   65.652476769  -18.074916023    81.0157   4   6   1.0087   0.4929   2.5496  -0.1916  -0.1302   1.3765   0.00    0.0
2012/03/25 10:51:08.000   65.652472495  -18.074908999    80.0545   4   6   1.0084   0.4929   2.5484  -0.1917  -0.1303   1.3758   0.00    0.0
2012/03/25 10:51:09.000   65.652483394  -18.074909818    83.2206   4   6   1.0080   0.4929   2.5472  -0.1918  -0.1305   1.3751   0.00    0.0
2012/03/25 10:51:10.000   65.652486131  -18.074912113    83.5949   4   6   1.0077   0.4929   2.5461  -0.1919  -0.1306   1.3744   0.00    0.0
2012/03/25 10:51:11.000   65.652476078  -18.074917579    81.1957   4   6   1.0073   0.4929   2.5449  -0.1920  -0.1308   1.3738   0.00    0.0
2012/03/25 10:51:12.000   65.652476347  -18.074927206    80.5616   4   6   1.0070   0.4930   2.5438  -0.1922  -0.1309   1.3731   0.00    0.0
2012/03/25 10:51:13.000   65.652475831  -18.074911692    80.3454   4   6   1.0066   0.4930   2.5426  -0.1923  -0.1311   1.3724   0.00    0.0
2012/03/25 10:51:14.000   65.652473403  -18.074903008    80.0504   4   6   1.0063   0.4930   2.5415  -0.1924  -0.1312   1.3717   0.00    0.0
2012/03/25 10:51:15.000   65.652468524  -18.074908645    79.2203   4   6   1.0059   0.4930   2.5403  -0.1925  -0.1314   1.3711   0.00    0.0
2012/03/25 10:51:16.000   65.652472126  -18.074908736    78.4543   4   6   1.0056   0.4930   2.5391  -0.1926  -0.1315   1.3704   0.00    0.0
2012/03/25 10:51:17.000   65.652480357  -18.074915532    81.6034   4   6   1.0052   0.4930   2.5380  -0.1928  -0.1317   1.3697   0.00    0.0
2012/03/25 10:51:18.000   65.652473529  -18.074907584    80.5254   4   6   1.0049   0.4931   2.5368  -0.1929  -0.1318   1.3690   0.00    0.0
2012/03/25 10:51:19.000   65.652466885  -18.074905436    78.5622   4   6   1.0045   0.4931   2.5357  -0.1930  -0.1320   1.3684   0.00    0.0
2012/03/25 10:51:20.000   65.652477406  -18.074910710    81.7397   4   6   1.0042   0.4931   2.5345  -0.1931  -0.1321   1.3677   0.00    0.0
2012/03/25 10:51:21.000   65.652482306  -18.074910710    82.4391   4   6   1.0038   0.4931   2.5334  -0.1932  -0.1323   1.3670   0.00    0.0
2012/03/25 10:51:22.000   65.652484518  -18.074904579    82.8340   4   6   1.0035   0.4931   2.5322  -0.1933  -0.1324   1.3663   0.00    0.0
2012/03/25 10:51:23.000   65.652484000  -18.074900980    82.2553   4   6   1.0031   0.4931   2.5311  -0.1934  -0.1326   1.3657   0.00    0.0
2012/03/25 10:51:24.000   65.652472705  -18.074909962    80.9582   4   6   1.0028   0.4932   2.5299  -0.1936  -0.1327   1.3650   0.00    0.0
2012/03/25 10:51:25.000   65.652472911  -18.074909318    79.8964   4   6   1.0024   0.4932   2.5288  -0.1937  -0.1329   1.3643   0.00    0.0
2012/03/25 10:51:26.000   65.652482580  -18.074910466    83.4314   4   6   1.0021   0.4932   2.5277  -0.1938  -0.1330   1.3637   0.00    0.0
2012/03/25 10:51:27.000   65.652473536  -18.074902840    78.9222   4   6   1.0017   0.4932   2.5265  -0.1939  -0.1332   1.3630   0.00    0.0
2012/03/25 10:51:28.000   65.652479603  -18.074906651    80.7681   4   6   1.0014   0.4932   2.5254  -0.1940  -0.1333   1.3623   0.00    0.0
2012/03/25 10:51:29.000   65.652472854  -18.074907590    80.4864   4   6   1.0010   0.4933   2.5242  -0.1941  -0.1335   1.3616   0.00    0.0
2012/03/25 10:51:30.000   65.652466840  -18.074894362    77.7377   4   6   1.0007   0.4933   2.5231  -0.1943  -0.1336   1.3610   0.00    0.0
2012/03/25 10:51:31.000   65.652469642  -18.074904843    79.9362   4   6   1.0004   0.4933   2.5219  -0.1944  -0.1338   1.3603   0.00    0.0
2012/03/25 10:51:32.000   65.652478687  -18.074899235    80.9174   4   6   1.0000   0.4933   2.5208  -0.1945  -0.1339   1.3596   0.00    0.0
2012/03/25 10:51:33.000   65.652471463  -18.074893202    78.8521   4   6   0.9997   0.4933   2.5197  -0.1946  -0.1340   1.3590   0.00    0.0
2012/03/25 10:51:34.000   65.652478213  -18.074901338    82.4820   4   6   0.9993   0.4933   2.5185  -0.1947  -0.1342   1.3583   0.00    0.0
2012/03/25 10:51:35.000   65.652475947  -18.074906230    81.7008   4   6   0.9990   0.4934   2.5174  -0.1948  -0.1343   1.3576   0.00    0.0
2012/03/25 10:51:36.000   65.652476475  -18.074892346    81.0382   4   6   0.9986   0.4934   2.5162  -0.1949  -0.1345   1.3570   0.00    0.0
2012/03/25 10:51:37.000   65.652474942  -18.074906717    81.3887   4   6   0.9983   0.4934   2.5151  -0.1951  -0.1346   1.3563   0.00    0.0
2012/03/25 10:51:38.000   65.652475468  -18.074905154    81.2067   4   6   0.9979   0.4934   2.5140  -0.1952  -0.1348   1.3556   0.00    0.0
2012/03/25 10:51:39.000   65.652474837  -18.074902891    81.0967   4   6   0.9976   0.4934   2.5128  -0.1953  -0.1349   1.3550   0.00    0.0
2012/03/25 10:51:40.000   65.652474846  -18.074903012    80.3589   4   6   0.9972   0.4934   2.5117  -0.1954  -0.1350   1.3543   0.00    0.0
2012/03/25 10:51:41.000   65.652477091  -18.074911846    80.5950   4   6   0.9969   0.4935   2.5106  -0.1955  -0.1352   1.3536   0.00    0.0
2012/03/25 10:51:42.000   65.652472470  -18.074909630    81.1821   4   6   0.9965   0.4935   2.5094  -0.1956  -0.1353   1.3530   0.00    0.0
2012/03/25 10:51:43.000   65.652481726  -18.074905233    81.9487   4   6   0.9962   0.4935   2.5083  -0.1957  -0.1355   1.3523   0.00    0.0
2012/03/25 10:51:44.000   65.652480911  -18.074904791    81.5421   4   6   0.9959   0.4935   2.5072  -0.1958  -0.1356   1.3516   0.00    0.0
2012/03/25 10:51:45.000   65.652475597  -18.074902037    81.1198   4   6   0.9955   0.4935   2.5061  -0.1960  -0.1358   1.3510   0.00    0.0
2012/03/25 10:51:46.000   65.652470162  -18.074899209    79.2708   4   6   0.9952   0.4935   2.5049  -0.1961  -0.1359   1.3503   0.00    0.0
2012/03/25 10:51:47.000   65.652474441  -18.074899937    80.1956   4   6   0.9948   0.4936   2.5038  -0.1962  -0.1360   1.3496   0.00    0.0
2012/03/25 10:51:48.000   65.652476220  -18.074904922    81.9986   4   6   0.9945   0.4936   2.5027  -0.1963  -0.1362   1.3490   0.00    0.0
2012/03/25 10:51:49.000   65.652479357  -18.074909884    82.2245   4   6   0.9941   0.4936   2.5015  -0.1964  -0.1363   1.3483   0.00    0.0
2012/03/25 10:51:50.000   65.652474916  -18.074904880    81.2824   4   6   0.9938   0.4936   2.5004  -0.1965  -0.1365   1.3476   0.00    0.0
2012/03/25 10:51:51.000   65.652470791  -18.074902490    78.9415   4   6   0.9935   0.4936   2.4993  -0.1966  -0.1366   1.3470   0.00    0.0
2012/03/25 10:51:52.000   65.652474810  -18.074893212    79.8580   4   6   0.9931   0.4937   2.4982  -0.1967  -0.1367   1.3463   0.00    0.0
2012/03/25 10:51:53.000   65.652477658  -18.074892884    81.5491   4   6   0.9928   0.4937   2.4970  -0.1968  -0.1369   1.3457   0.00    0.0
2012/03/25 10:51:54.000   65.652476680  -18.074888155    81.8026   4   6   0.9924   0.4937   2.4959  -0.1970  -0.1370   1.3450   0.00    0.0
2012/03/25 10:51:55.000   65.652484596  -18.074903134    84.2439   4   6   0.9921   0.4937   2.4948  -0.1971  -0.1372   1.3443   0.00    0.0
2012/03/25 10:51:56.000   65.652479610  -18.074900939    81.8809   4   6   0.9917   0.4937   2.4937  -0.1972  -0.1373   1.3437   0.00    0.0
2012/03/25 10:51:57.000   65.652478833  -18.074901950    81.6614   4   6   0.9914   0.4937   2.4926  -0.1973  -0.1374   1.3430   0.00    0.0
2012/03/25 10:51:58.000   65.652478239  -18.074891649    81.4820   4   6   0.9911   0.4938   2.4914  -0.1974  -0.1376   1.3424   0.00    0.0
2012/03/25 10:51:59.000   65.652467514  -18.074901799    80.1234   4   6   0.9907   0.4938   2.4903  -0.1975  -0.1377   1.3417   0.00    0.0
2012/03/25 10:52:00.000   65.652483069  -18.074894950    82.4192   4   6   0.9904   0.4938   2.4892  -0.1976  -0.1378   1.3410   0.00    0.0
2012/03/25 10:52:01.000   65.652476165  -18.074893694    82.1650   4   6   0.9900   0.4938   2.4881  -0.1977  -0.1380   1.3404   0.00    0.0
2012/03/25 10:52:02.000   65.652476510  -18.074905845    81.3247   4   6   0.9897   0.4938   2.4870  -0.1978  -0.1381   1.3397   0.00    0.0
2012/03/25 10:52:03.000   65.652477862  -18.074893651    80.9721   4   6   0.9894   0.4938   2.4859  -0.1979  -0.1383   1.3391   0.00    0.0
2012/03/25 10:52:04.000   65.652484773  -18.074892134    82.4788   4   6   0.9890   0.4939   2.4848  -0.1981  -0.1384   1.3384   0.00    0.0
2012/03/25 10:52:05.000   65.652476418  -18.074890735    80.0798   4   6   0.9887   0.4939   2.4836  -0.1982  -0.1385   1.3378   0.00    0.0
2012/03/25 10:52:06.000   65.652474526  -18.074894512    80.5946   4   6   0.9883   0.4939   2.4825  -0.1983  -0.1387   1.3371   0.00    0.0
2012/03/25 10:52:07.000   65.652481481  -18.074900017    81.5797   4   6   0.9880   0.4939   2.4814  -0.1984  -0.1388   1.3364   0.00    0.0
2012/03/25 10:52:08.000   65.652477711  -18.074897429    81.8357   4   6   0.9876   0.4939   2.4803  -0.1985  -0.1389   1.3358   0.00    0.0
2012/03/25 10:52:09.000   65.652475969  -18.074890022    80.9893   4   6   0.9873   0.4939   2.4792  -0.1986  -0.1391   1.3351   0.00    0.0
2012/03/25 10:52:10.000   65.652488691  -18.074893289    83.3335   4   6   0.9870   0.4940   2.4781  -0.1987  -0.1392   1.3345   0.00    0.0
2012/03/25 10:52:11.000   65.652478862  -18.074892449    81.5103   4   6   0.9866   0.4940   2.4770  -0.1988  -0.1393   1.3338   0.00    0.0
2012/03/25 10:52:12.000   65.652484002  -18.074895762    82.7232   4   6   0.9863   0.4940   2.4759  -0.1989  -0.1395   1.3332   0.00    0.0
2012/03/25 10:52:13.000   65.652478473  -18.074884470    81.9281   4   6   0.9860   0.4940   2.4748  -0.1990  -0.1396   1.3325   0.00    0.0
2012/03/25 10:52:14.000   65.652482260  -18.074891261    82.4862   4   6   0.9856   0.4940   2.4737  -0.1991  -0.1397   1.3319   0.00    0.0
2012/03/25 10:52:15.000   65.652484227  -18.074892024    83.6657   4   6   0.9853   0.4941   2.4726  -0.1992  -0.1399   1.3312   0.00    0.0
2012/03/25 10:52:16.000   65.652486262  -18.074893421    83.4693   4   6   0.9849   0.4941   2.4715  -0.1993  -0.1400   1.3306   0.00    0.0
2012/03/25 10:52:17.000   65.652472735  -18.074892452    78.8432   4   6   0.9846   0.4941   2.4704  -0.1995  -0.1401   1.3299   0.00    0.0
2012/03/25 10:52:18.000   65.652477779  -18.074888768    80.5729   4   6   0.9843   0.4941   2.4692  -0.1996  -0.1403   1.3292   0.00    0.0
2012/03/25 10:52:19.000   65.652480350  -18.074896083    82.6606   4   6   0.9839   0.4941   2.4681  -0.1997  -0.1404   1.3286   0.00    0.0
2012/03/25 10:52:20.000   65.652490506  -18.074893654    84.7204   4   6   0.9836   0.4941   2.4670  -0.1998  -0.1405   1.3279   0.00    0.0
2012/03/25 10:52:21.000   65.652485513  -18.074879342    82.4171   4   6   0.9832   0.4942   2.4659  -0.1999  -0.1407   1.3273   0.00    0.0
2012/03/25 10:52:22.000   65.652473134  -18.074890026    79.1095   4   6   0.9829   0.4942   2.4648  -0.2000  -0.1408   1.3266   0.00    0.0
2012/03/25 10:52:23.000   65.652477825  -18.074895537    81.9300   4   6   0.9826   0.4942   2.4638  -0.2001  -0.1409   1.3260   0.00    0.0
2012/03/25 10:52:24.000   65.652476246  -18.074886889    79.1961   4   6   0.9822   0.4942   2.4627  -0.2002  -0.1411   1.3253   0.00    0.0
2012/03/25 10:52:25.000   65.652484645  -18.074888232    82.3834   4   6   0.9819   0.4942   2.4616  -0.2003  -0.1412   1.3247   0.00    0.0
2012/03/25 10:52:26.000   65.652480097  -18.074887124    80.8977   4   6   0.9816   0.4942   2.4605  -0.2004  -0.1413   1.3240   0.00    0.0
2012/03/25 10:52:27.000   65.652484775  -18.074880099    83.7556   4   6   0.9812   0.4943   2.4594  -0.2005  -0.1414   1.3234   0.00    0.0
2012/03/25 10:52:28.000   65.652478393  -18.074878048    81.9914   4   6   0.9809   0.4943   2.4583  -0.2006  -0.1416   1.3228   0.00    0.0
2012/03/25 10:52:29.000   65.652471827  -18.074886274    80.6960   4   6   0.9806   0.4943   2.4572  -0.2007  -0.1417   1.3221   0.00    0.0
2012/03/25 10:52:30.000   65.652482076  -18.074881931    82.5969   4   6   0.9802   0.4943   2.4561  -0.2008  -0.1418   1.3215   0.00    0.0
2012/03/25 10:52:31.000   65.652478378  -18.074877057    80.9094   4   6   0.9799   0.4943   2.4550  -0.2009  -0.1420   1.3208   0.00    0.0
2012/03/25 10:52:32.000   65.652474171  -18.074894402    81.3847   4   6   0.9796   0.4943   2.4539  -0.2010  -0.1421   1.3202   0.00    0.0
2012/03/25 10:52:33.000   65.652483073  -18.074893450    81.2759   4   6   0.9792   0.4944   2.4528  -0.2011  -0.1422   1.3195   0.00    0.0
2012/03/25 10:52:34.000   65.652482144  -18.074895508    81.2397   4   6   0.9789   0.4944   2.4517  -0.2012  -0.1423   1.3189   0.00    0.0
2012/03/25 10:52:35.000   65.652490472  -18.074883276    84.1495   4   6   0.9785   0.4944   2.4506  -0.2014  -0.1425   1.3182   0.00    0.0
2012/03/25 10:52:36.000   65.652490781  -18.074882485    83.7630   4   6   0.9782   0.4944   2.4496  -0.2015  -0.1426   1.3176   0.00    0.0
2012/03/25 10:52:37.000   65.652488292  -18.074885460    84.8721   4   6   0.9779   0.4944   2.4485  -0.2016  -0.1427   1.3169   0.00    0.0
2012/03/25 10:52:38.000   65.652487256  -18.074891188    82.3481   4   6   0.9775   0.4945   2.4474  -0.2017  -0.1429   1.3163   0.00    0.0
2012/03/25 10:52:39.000   65.652481798  -18.074884781    82.0918   4   6   0.9772   0.4945   2.4463  -0.2018  -0.1430   1.3157   0.00    0.0
2012/03/25 10:52:40.000   65.652485142  -18.074881868    80.5762   4   6   0.9769   0.4945   2.4452  -0.2019  -0.1431   1.3150   0.00    0.0
2012/03/25 10:52:41.000   65.652483339  -18.074888284    80.2969   4   6   0.9765   0.4945   2.4441  -0.2020  -0.1432   1.3144   0.00    0.0
2012/03/25 10:52:42.000   65.652479891  -18.074884449    80.6438   4   6   0.9762   0.4945   2.4430  -0.2021  -0.1434   1.3137   0.00    0.0
2012/03/25 10:52:43.000   65.652490811  -18.074893338    84.7053   4   6   0.9759   0.4945   2.4420  -0.2022  -0.1435   1.3131   0.00    0.0
2012/03/25 10:52:44.000   65.652480690  -18.074885941    81.9431   4   6   0.9755   0.4946   2.4409  -0.2023  -0.1436   1.3124   0.00    0.0
2012/03/25 10:52:45.000   65.652482011  -18.074893005    80.8388   4   6   0.9752   0.4946   2.4398  -0.2024  -0.1437   1.3118   0.00    0.0
2012/03/25 10:52:46.000   65.652484491  -18.074885885    82.0582   4   6   0.9749   0.4946   2.4387  -0.2025  -0.1439   1.3112   0.00    0.0
2012/03/25 10:52:47.000   65.652488431  -18.074896692    83.8393   4   6   0.9745   0.4946   2.4376  -0.2026  -0.1440   1.3105   0.00    0.0
2012/03/25 10:52:48.000   65.652476351  -18.074883736    79.8972   4   6   0.9742   0.4946   2.4366  -0.2027  -0.1441   1.3099   0.00    0.0
2012/03/25 10:52:49.000   65.652477253  -18.074885075    80.4588   4   6   0.9739   0.4946   2.4355  -0.2028  -0.1442   1.3092   0.00    0.0
2012/03/25 10:52:50.000   65.652481728  -18.074881631    81.4965   4   6   0.9736   0.4947   2.4344  -0.2029  -0.1444   1.3086   0.00    0.0
2012/03/25 10:52:51.000   65.652476354  -18.074894324    80.2662   4   6   0.9732   0.4947   2.4333  -0.2030  -0.1445   1.3080   0.00    0.0
2012/03/25 10:52:52.000   65.652488318  -18.074882472    81.6009   4   6   0.9729   0.4947   2.4323  -0.2031  -0.1446   1.3073   0.00    0.0
2012/03/25 10:52:53.000   65.652487302  -18.074892713    82.5000   4   6   0.9726   0.4947   2.4312  -0.2032  -0.1447   1.3067   0.00    0.0
2012/03/25 10:52:54.000   65.652490794  -18.074889566    84.1664   4   6   0.9722   0.4947   2.4301  -0.2033  -0.1449   1.3060   0.00    0.0
2012/03/25 10:52:55.000   65.652486698  -18.074889850    83.5123   4   6   0.9719   0.4947   2.4291  -0.2034  -0.1450   1.3054   0.00    0.0
2012/03/25 10:52:56.000   65.652488939  -18.074893519    82.1738   4   6   0.9716   0.4948   2.4280  -0.2035  -0.1451   1.3048   0.00    0.0
2012/03/25 10:52:57.000   65.652488275  -18.074888992    82.2476   4   6   0.9712   0.4948   2.4269  -0.2036  -0.1452   1.3041   0.00    0.0
2012/03/25 10:52:58.000   65.652484592  -18.074888210    81.5767   4   6   0.9709   0.4948   2.4258  -0.2037  -0.1454   1.3035   0.00    0.0
2012/03/25 10:52:59.000   65.652480239  -18.074888508    80.6486   4   6   0.9706   0.4948   2.4248  -0.2038  -0.1455   1.3029   0.00    0.0
2012/03/25 10:53:00.000   65.652483219  -18.074891099    81.8947   4   6   0.9702   0.4948   2.4237  -0.2039  -0.1456   1.3022   0.00    0.0
2012/03/25 10:53:01.000   65.652482568  -18.074895277    81.4626   4   6   0.9699   0.4949   2.4226  -0.2040  -0.1457   1.3016   0.00    0.0
2012/03/25 10:53:02.000   65.652479811  -18.074884927    80.2118   4   6   0.9696   0.4949   2.4216  -0.2041  -0.1459   1.3010   0.00    0.0
2012/03/25 10:53:03.000   65.652493062  -18.074895414    84.4201   4   6   0.9693   0.4949   2.4205  -0.2042  -0.1460   1.3003   0.00    0.0
2012/03/25 10:53:04.000   65.652476683  -18.074881006    81.3855   4   6   0.9689   0.4949   2.4195  -0.2043  -0.1461   1.2997   0.00    0.0
2012/03/25 10:53:05.000   65.652478483  -18.074891759    82.0995   4   6   0.9686   0.4949   2.4184  -0.2044  -0.1462   1.2991   0.00    0.0
2012/03/25 10:53:06.000   65.652485129  -18.074889498    82.2253   4   6   0.9683   0.4949   2.4173  -0.2045  -0.1463   1.2984   0.00    0.0
2012/03/25 10:53:07.000   65.652483177  -18.074898531    82.0402   4   6   0.9679   0.4950   2.4163  -0.2046  -0.1465   1.2978   0.00    0.0
2012/03/25 10:53:08.000   65.652484945  -18.074886422    81.4468   4   6   0.9676   0.4950   2.4152  -0.2047  -0.1466   1.2972   0.00    0.0
2012/03/25 10:53:09.000   65.652489478  -18.074892793    82.2532   4   6   0.9673   0.4950   2.4141  -0.2048  -0.1467   1.2965   0.00    0.0
2012/03/25 10:53:10.000   65.652471879  -18.074887190    79.0633   4   6   0.9670   0.4950   2.4131  -0.2049  -0.1468   1.2959   0.00    0.0
2012/03/25 10:53:11.000   65.652483395  -18.074884350    81.3408   4   6   0.9666   0.4950   2.4120  -0.2050  -0.1469   1.2953   0.00    0.0
2012/03/25 10:53:12.000   65.652481246  -18.074897633    81.9907   4   6   0.9663   0.4950   2.4110  -0.2051  -0.1471   1.2946   0.00    0.0
2012/03/25 10:53:13.000   65.652492078  -18.074878259    84.4777   4   6   0.9660   0.4951   2.4099  -0.2052  -0.1472   1.2940   0.00    0.0
2012/03/25 10:53:14.000   65.652486585  -18.074900693    82.0920   4   6   0.9657   0.4951   2.4089  -0.2053  -0.1473   1.2934   0.00    0.0
2012/03/25 10:53:15.000   65.652481936  -18.074885975    80.6423   4   6   0.9653   0.4951   2.4078  -0.2054  -0.1474   1.2927   0.00    0.0
2012/03/25 10:53:16.000   65.652484522  -18.074901535    80.4357   4   6   0.9650   0.4951   2.4067  -0.2055  -0.1475   1.2921   0.00    0.0
2012/03/25 10:53:17.000   65.652481877  -18.074887475    81.9140   4   6   0.9647   0.4951   2.4057  -0.2056  -0.1477   1.2915   0.00    0.0
2012/03/25 10:53:18.000   65.652487338  -18.074890093    81.7127   4   6   0.9643   0.4951   2.4046  -0.2057  -0.1478   1.2909   0.00    0.0
2012/03/25 10:53:19.000   65.652488092  -18.074885394    83.2355   4   6   0.9640   0.4952   2.4036  -0.2058  -0.1479   1.2902   0.00    0.0
2012/03/25 10:53:20.000   65.652485741  -18.074882909    83.1947   4   6   0.9637   0.4952   2.4025  -0.2059  -0.1480   1.2896   0.00    0.0
2012/03/25 10:53:21.000   65.652483535  -18.074882904    82.2333   4   6   0.9634   0.4952   2.4015  -0.2060  -0.1481   1.2890   0.00    0.0
2012/03/25 10:53:22.000   65.652491581  -18.074900066    83.7612   4   6   0.9630   0.4952   2.4004  -0.2061  -0.1482   1.2884   0.00    0.0
2012/03/25 10:53:23.000   65.652474833  -18.074893202    80.0693   4   6   0.9627   0.4952   2.3994  -0.2062  -0.1484   1.2877   0.00    0.0
2012/03/25 10:53:24.000   65.652481278  -18.074893084    79.6843   4   6   0.9624   0.4953   2.3983  -0.2063  -0.1485   1.2871   0.00    0.0
2012/03/25 10:53:25.000   65.652482803  -18.074881912    80.5259   4   6   0.9621   0.4953   2.3973  -0.2064  -0.1486   1.2865   0.00    0.0
2012/03/25 10:53:26.000   65.652480170  -18.074889396    80.7970   4   6   0.9617   0.4953   2.3962  -0.2065  -0.1487   1.2859   0.00    0.0
2012/03/25 10:53:27.000   65.652480756  -18.074902353    80.0647   4   6   0.9614   0.4953   2.3952  -0.2066  -0.1488   1.2852   0.00    0.0
